{"type":"Topology","arcs":[],"objects":{"airports":{"type":"GeometryCollection","geometries":[{"type":"Point","coordinates":[-84.42810059,33.63669968],"properties":{"name":"Hartsfield Jackson Atlanta International","city":"Atlanta","iata":"ATL","lat":33.63669968,"lng":-84.42810059,"rank":1}},{"type":"Point","coordinates":[-118.4079971,33.94250107],"properties":{"name":"Los Angeles International","city":"Los Angeles","iata":"LAX","lat":33.94250107,"lng":-118.4079971,"rank":2}},{"type":"Point","coordinates":[-87.90480042,41.97859955],"properties":{"name":"Chicago O'Hare International","city":"Chicago","iata":"ORD","lat":41.97859955,"lng":-87.90480042,"rank":3}},{"type":"Point","coordinates":[-97.03800201,32.89680099],"properties":{"name":"Dallas Fort Worth International","city":"Dallas-Fort Worth","iata":"DFW","lat":32.89680099,"lng":-97.03800201,"rank":4}},{"type":"Point","coordinates":[-73.77890015,40.63980103],"properties":{"name":"John F Kennedy International","city":"New York","iata":"JFK","lat":40.63980103,"lng":-73.77890015,"rank":5}},{"type":"Point","coordinates":[-104.6729965,39.86169815],"properties":{"name":"Denver International","city":"Denver","iata":"DEN","lat":39.86169815,"lng":-104.6729965,"rank":6}},{"type":"Point","coordinates":[-122.375,37.61899948],"properties":{"name":"San Francisco International","city":"San Francisco","iata":"SFO","lat":37.61899948,"lng":-122.375,"rank":7}},{"type":"Point","coordinates":[-80.94309998,35.2140007],"properties":{"name":"Charlotte Douglas International","city":"Charlotte","iata":"CLT","lat":35.2140007,"lng":-80.94309998,"rank":8}},{"type":"Point","coordinates":[-115.1520004,36.08010101],"properties":{"name":"McCarran International","city":"Las Vegas","iata":"LAS","lat":36.08010101,"lng":-115.1520004,"rank":9}},{"type":"Point","coordinates":[-112.012001,33.43429947],"properties":{"name":"Phoenix Sky Harbor International","city":"Phoenix","iata":"PHX","lat":33.43429947,"lng":-112.012001,"rank":10}},{"type":"Point","coordinates":[-80.29060364,25.79319954],"properties":{"name":"Miami International","city":"Miami","iata":"MIA","lat":25.79319954,"lng":-80.29060364,"rank":11}},{"type":"Point","coordinates":[-95.34140015,29.9843998],"properties":{"name":"George Bush Intercontinental Houston","city":"Houston","iata":"IAH","lat":29.9843998,"lng":-95.34140015,"rank":12}},{"type":"Point","coordinates":[-122.3089981,47.44900131],"properties":{"name":"Seattle Tacoma International","city":"Seattle","iata":"SEA","lat":47.44900131,"lng":-122.3089981,"rank":13}},{"type":"Point","coordinates":[-81.30899811,28.42939949],"properties":{"name":"Orlando International","city":"Orlando","iata":"MCO","lat":28.42939949,"lng":-81.30899811,"rank":14}},{"type":"Point","coordinates":[-74.16870117,40.69250107],"properties":{"name":"Newark Liberty International","city":"Newark","iata":"EWR","lat":40.69250107,"lng":-74.16870117,"rank":15}},{"type":"Point","coordinates":[-93.22180176,44.88199997],"properties":{"name":"Minneapolis-St Paul International/Wold-Chamberlain","city":"Minneapolis","iata":"MSP","lat":44.88199997,"lng":-93.22180176,"rank":16}},{"type":"Point","coordinates":[-71.00520325,42.36429977],"properties":{"name":"General Edward Lawrence Logan International","city":"Boston","iata":"BOS","lat":42.36429977,"lng":-71.00520325,"rank":17}},{"type":"Point","coordinates":[-83.35340118,42.21239853],"properties":{"name":"Detroit Metropolitan Wayne County","city":"Detroit","iata":"DTW","lat":42.21239853,"lng":-83.35340118,"rank":18}},{"type":"Point","coordinates":[-75.2410965,39.87189865],"properties":{"name":"Philadelphia International","city":"Philadelphia","iata":"PHL","lat":39.87189865,"lng":-75.2410965,"rank":19}},{"type":"Point","coordinates":[-73.87259674,40.77719879],"properties":{"name":"La Guardia","city":"New York","iata":"LGA","lat":40.77719879,"lng":-73.87259674,"rank":20}},{"type":"Point","coordinates":[-80.15270233,26.07259941],"properties":{"name":"Fort Lauderdale Hollywood International","city":"Fort Lauderdale","iata":"FLL","lat":26.07259941,"lng":-80.15270233,"rank":21}},{"type":"Point","coordinates":[-76.66829681,39.17539978],"properties":{"name":"Baltimore/Washington International Thurgood Marshall","city":"Baltimore","iata":"BWI","lat":39.17539978,"lng":-76.66829681,"rank":22}},{"type":"Point","coordinates":[-77.037697,38.8521],"properties":{"name":"Ronald Reagan Washington National","city":"Washington","iata":"DCA","lat":38.8521,"lng":-77.037697,"rank":23}},{"type":"Point","coordinates":[-87.75240326,41.7859993],"properties":{"name":"Chicago Midway International","city":"Chicago","iata":"MDW","lat":41.7859993,"lng":-87.75240326,"rank":24}},{"type":"Point","coordinates":[-111.9779968,40.78839874],"properties":{"name":"Salt Lake City International","city":"Salt Lake City","iata":"SLC","lat":40.78839874,"lng":-111.9779968,"rank":25}},{"type":"Point","coordinates":[-77.45580292,38.94449997],"properties":{"name":"Washington Dulles International","city":"Washington","iata":"IAD","lat":38.94449997,"lng":-77.45580292,"rank":26}},{"type":"Point","coordinates":[-117.1900024,32.73360062],"properties":{"name":"San Diego International","city":"San Diego","iata":"SAN","lat":32.73360062,"lng":-117.1900024,"rank":27}},{"type":"Point","coordinates":[-82.53320313,27.97550011],"properties":{"name":"Tampa International","city":"Tampa","iata":"TPA","lat":27.97550011,"lng":-82.53320313,"rank":29}},{"type":"Point","coordinates":[-122.5979996,45.58869934],"properties":{"name":"Portland International","city":"Portland","iata":"PDX","lat":45.58869934,"lng":-122.5979996,"rank":30}},{"type":"Point","coordinates":[-96.85179901,32.8470993],"properties":{"name":"Dallas Love Field","city":"Dallas","iata":"DAL","lat":32.8470993,"lng":-96.85179901,"rank":31}},{"type":"Point","coordinates":[-90.37000275,38.74869919],"properties":{"name":"Lambert St Louis International","city":"St. Louis","iata":"STL","lat":38.74869919,"lng":-90.37000275,"rank":32}},{"type":"Point","coordinates":[-95.27890015,29.64539909],"properties":{"name":"William P Hobby","city":"Houston","iata":"HOU","lat":29.64539909,"lng":-95.27890015,"rank":33}},{"type":"Point","coordinates":[-97.66989899,30.19449997],"properties":{"name":"Austin Bergstrom International","city":"Austin","iata":"AUS","lat":30.19449997,"lng":-97.66989899,"rank":34}},{"type":"Point","coordinates":[-86.67819977,36.12450027],"properties":{"name":"Nashville International","city":"Nashville","iata":"BNA","lat":36.12450027,"lng":-86.67819977,"rank":35}},{"type":"Point","coordinates":[-122.2210007,37.72129822],"properties":{"name":"Metropolitan Oakland International","city":"Oakland","iata":"OAK","lat":37.72129822,"lng":-122.2210007,"rank":36}},{"type":"Point","coordinates":[-90.25800323,29.99340057],"properties":{"name":"Louis Armstrong New Orleans International","city":"New Orleans","iata":"MSY","lat":29.99340057,"lng":-90.25800323,"rank":37}},{"type":"Point","coordinates":[-94.713898,39.2976],"properties":{"name":"Kansas City International","city":"Kansas City","iata":"MCI","lat":39.2976,"lng":-94.713898,"rank":38}},{"type":"Point","coordinates":[-78.78749847,35.87760162],"properties":{"name":"Raleigh Durham International","city":"Raleigh-Durham","iata":"RDU","lat":35.87760162,"lng":-78.78749847,"rank":39}},{"type":"Point","coordinates":[-117.8679962,33.67570114],"properties":{"name":"John Wayne Airport-Orange County","city":"Santa Ana","iata":"SNA","lat":33.67570114,"lng":-117.8679962,"rank":40}},{"type":"Point","coordinates":[-121.9290009,37.36259842],"properties":{"name":"Norman Y. Mineta San Jose International","city":"San Jose","iata":"SJC","lat":37.36259842,"lng":-121.9290009,"rank":41}},{"type":"Point","coordinates":[-121.5910034,38.69540024],"properties":{"name":"Sacramento International","city":"Sacramento","iata":"SMF","lat":38.69540024,"lng":-121.5910034,"rank":42}},{"type":"Point","coordinates":[-81.75520325,26.53619957],"properties":{"name":"Southwest Florida International","city":"Fort Myers","iata":"RSW","lat":26.53619957,"lng":-81.75520325,"rank":43}},{"type":"Point","coordinates":[-98.46980286,29.53370094],"properties":{"name":"San Antonio International","city":"San Antonio","iata":"SAT","lat":29.53370094,"lng":-98.46980286,"rank":44}},{"type":"Point","coordinates":[-81.84980011,41.4117012],"properties":{"name":"Cleveland Hopkins International","city":"Cleveland","iata":"CLE","lat":41.4117012,"lng":-81.84980011,"rank":45}},{"type":"Point","coordinates":[-80.23290253,40.49150085],"properties":{"name":"Pittsburgh International","city":"Pittsburgh","iata":"PIT","lat":40.49150085,"lng":-80.23290253,"rank":46}},{"type":"Point","coordinates":[-86.294403,39.7173],"properties":{"name":"Indianapolis International","city":"Indianapolis","iata":"IND","lat":39.7173,"lng":-86.294403,"rank":47}},{"type":"Point","coordinates":[-82.89189911,39.9980011],"properties":{"name":"Port Columbus International","city":"Columbus","iata":"CMH","lat":39.9980011,"lng":-82.89189911,"rank":48}},{"type":"Point","coordinates":[-87.89659882,42.94720078],"properties":{"name":"General Mitchell International","city":"Milwaukee","iata":"MKE","lat":42.94720078,"lng":-87.89659882,"rank":49}},{"type":"Point","coordinates":[-80.09559631,26.68320084],"properties":{"name":"Palm Beach International","city":"West Palm Beach","iata":"PBI","lat":26.68320084,"lng":-80.09559631,"rank":51}},{"type":"Point","coordinates":[-84.6678009,39.04880142],"properties":{"name":"Cincinnati Northern Kentucky International","city":"Cincinnati","iata":"CVG","lat":39.04880142,"lng":-84.6678009,"rank":52}},{"type":"Point","coordinates":[-72.68319702,41.93889999],"properties":{"name":"Bradley International","city":"Windsor Locks","iata":"BDL","lat":41.93889999,"lng":-72.68319702,"rank":53}},{"type":"Point","coordinates":[-81.68789673,30.49410057],"properties":{"name":"Jacksonville International","city":"Jacksonville","iata":"JAX","lat":30.49410057,"lng":-81.68789673,"rank":54}},{"type":"Point","coordinates":[-78.73220062,42.94049835],"properties":{"name":"Buffalo Niagara International","city":"Buffalo","iata":"BUF","lat":42.94049835,"lng":-78.73220062,"rank":56}},{"type":"Point","coordinates":[-106.6090012,35.04019928],"properties":{"name":"Albuquerque International Sunport","city":"Albuquerque","iata":"ABQ","lat":35.04019928,"lng":-106.6090012,"rank":57}},{"type":"Point","coordinates":[-117.6009979,34.05599976],"properties":{"name":"Ontario International","city":"Ontario","iata":"ONT","lat":34.05599976,"lng":-117.6009979,"rank":58}},{"type":"Point","coordinates":[-95.89409637,41.30319977],"properties":{"name":"Eppley Airfield","city":"Omaha","iata":"OMA","lat":41.30319977,"lng":-95.89409637,"rank":59}},{"type":"Point","coordinates":[-118.3590012,34.20069885],"properties":{"name":"Bob Hope","city":"Burbank","iata":"BUR","lat":34.20069885,"lng":-118.3590012,"rank":60}},{"type":"Point","coordinates":[-89.97669983,35.04240036],"properties":{"name":"Memphis International","city":"Memphis","iata":"MEM","lat":35.04240036,"lng":-89.97669983,"rank":61}},{"type":"Point","coordinates":[-97.60070038,35.39310074],"properties":{"name":"Will Rogers World","city":"Oklahoma City","iata":"OKC","lat":35.39310074,"lng":-97.60070038,"rank":62}},{"type":"Point","coordinates":[-71.42040253,41.73260117],"properties":{"name":"Theodore Francis Green State","city":"Providence","iata":"PVD","lat":41.73260117,"lng":-71.42040253,"rank":63}},{"type":"Point","coordinates":[-77.31970215,37.50519943],"properties":{"name":"Richmond International","city":"Richmond","iata":"RIC","lat":37.50519943,"lng":-77.31970215,"rank":64}},{"type":"Point","coordinates":[-80.04049683,32.89860153],"properties":{"name":"Charleston International","city":"Charleston","iata":"CHS","lat":32.89860153,"lng":-80.04049683,"rank":65}},{"type":"Point","coordinates":[-119.7679977,39.49909973],"properties":{"name":"Reno Tahoe International","city":"Reno","iata":"RNO","lat":39.49909973,"lng":-119.7679977,"rank":66}},{"type":"Point","coordinates":[-85.736,38.1744],"properties":{"name":"Louisville International Standiford Field","city":"Louisville","iata":"SDF","lat":38.1744,"lng":-85.736,"rank":67}},{"type":"Point","coordinates":[-110.9410019,32.11610031],"properties":{"name":"Tucson International","city":"Tucson","iata":"TUS","lat":32.11610031,"lng":-110.9410019,"rank":68}},{"type":"Point","coordinates":[-117.5339966,47.61989975],"properties":{"name":"Spokane International","city":"Spokane","iata":"GEG","lat":47.61989975,"lng":-117.5339966,"rank":69}},{"type":"Point","coordinates":[-76.20120239,36.89459991],"properties":{"name":"Norfolk International","city":"Norfolk","iata":"ORF","lat":36.89459991,"lng":-76.20120239,"rank":70}},{"type":"Point","coordinates":[-116.2229996,43.56439972],"properties":{"name":"Boise Air Terminal/Gowen field","city":"Boise","iata":"BOI","lat":43.56439972,"lng":-116.2229996,"rank":72}},{"type":"Point","coordinates":[-106.3779984,31.80719948],"properties":{"name":"El Paso International","city":"El Paso","iata":"ELP","lat":31.80719948,"lng":-106.3779984,"rank":74}},{"type":"Point","coordinates":[-95.88809967,36.19839859],"properties":{"name":"Tulsa International","city":"Tulsa","iata":"TUL","lat":36.19839859,"lng":-95.88809967,"rank":75}},{"type":"Point","coordinates":[-86.75350189,33.56290054],"properties":{"name":"Birmingham-Shuttlesworth International","city":"Birmingham","iata":"BHM","lat":33.56290054,"lng":-86.75350189,"rank":76}},{"type":"Point","coordinates":[-85.52279663,42.88079834],"properties":{"name":"Gerald R Ford International","city":"Grand Rapids","iata":"GRR","lat":42.88079834,"lng":-85.52279663,"rank":77}},{"type":"Point","coordinates":[-73.80169678,42.74829865],"properties":{"name":"Albany International","city":"Albany","iata":"ALB","lat":42.74829865,"lng":-73.80169678,"rank":78}},{"type":"Point","coordinates":[-118.1520004,33.81769943],"properties":{"name":"Long Beach /Daugherty Field","city":"Long Beach","iata":"LGB","lat":33.81769943,"lng":-118.1520004,"rank":79}},{"type":"Point","coordinates":[-81.23750305,28.77759933],"properties":{"name":"Orlando Sanford International","city":"Sanford","iata":"SFB","lat":28.77759933,"lng":-81.23750305,"rank":80}},{"type":"Point","coordinates":[-77.67240143,43.1189003],"properties":{"name":"Greater Rochester International","city":"Rochester","iata":"ROC","lat":43.1189003,"lng":-77.67240143,"rank":81}},{"type":"Point","coordinates":[-93.6631012,41.5340004],"properties":{"name":"Des Moines International","city":"Des Moines","iata":"DSM","lat":41.5340004,"lng":-93.6631012,"rank":82}},{"type":"Point","coordinates":[-84.2193985,39.90240097],"properties":{"name":"James M Cox Dayton International","city":"Dayton","iata":"DAY","lat":39.90240097,"lng":-84.2193985,"rank":83}},{"type":"Point","coordinates":[-71.43569946,42.93259811],"properties":{"name":"Manchester","city":"Manchester","iata":"MHT","lat":42.93259811,"lng":-71.43569946,"rank":84}},{"type":"Point","coordinates":[-76.10630035,43.11119843],"properties":{"name":"Syracuse Hancock International","city":"Syracuse","iata":"SYR","lat":43.11119843,"lng":-76.10630035,"rank":85}},{"type":"Point","coordinates":[-81.20210266,32.12760162],"properties":{"name":"Savannah Hilton Head International","city":"Savannah","iata":"SAV","lat":32.12760162,"lng":-81.20210266,"rank":86}},{"type":"Point","coordinates":[-92.22429657,34.72940063],"properties":{"name":"Bill and Hillary Clinton National Airport/Adams Field","city":"Little Rock","iata":"LIT","lat":34.72940063,"lng":-92.22429657,"rank":87}},{"type":"Point","coordinates":[-82.21890259,34.89569855],"properties":{"name":"Greenville Spartanburg International","city":"Greenville","iata":"GSP","lat":34.89569855,"lng":-82.21890259,"rank":88}},{"type":"Point","coordinates":[-116.5070038,33.82970047],"properties":{"name":"Palm Springs International","city":"Palm Springs","iata":"PSP","lat":33.82970047,"lng":-116.5070038,"rank":89}},{"type":"Point","coordinates":[-78.92829895,33.67969894],"properties":{"name":"Myrtle Beach International","city":"Myrtle Beach","iata":"MYR","lat":33.67969894,"lng":-78.92829895,"rank":90}},{"type":"Point","coordinates":[-70.30930328,43.64619827],"properties":{"name":"Portland International Jetport","city":"Portland","iata":"PWM","lat":43.64619827,"lng":-70.30930328,"rank":91}},{"type":"Point","coordinates":[-83.9940033,35.81100082],"properties":{"name":"McGhee Tyson","city":"Knoxville","iata":"TYS","lat":35.81100082,"lng":-83.9940033,"rank":92}},{"type":"Point","coordinates":[-79.93730164,36.09780121],"properties":{"name":"Piedmont Triad International","city":"Greensboro","iata":"GSO","lat":36.09780121,"lng":-79.93730164,"rank":93}},{"type":"Point","coordinates":[-89.33750153,43.13990021],"properties":{"name":"Dane County Regional Truax Field","city":"Madison","iata":"MSN","lat":43.13990021,"lng":-89.33750153,"rank":94}},{"type":"Point","coordinates":[-82.68740082,27.91020012],"properties":{"name":"St Petersburg Clearwater International Airport","city":"St Petersburg","iata":"PIE","lat":27.91020012,"lng":-82.68740082,"rank":95}},{"type":"Point","coordinates":[-87.18659973,30.47340012],"properties":{"name":"Pensacola International","city":"Pensacola","iata":"PNS","lat":30.47340012,"lng":-87.18659973,"rank":96}},{"type":"Point","coordinates":[-97.43309784,37.64989853],"properties":{"name":"Wichita Dwight D Eisenhower National","city":"Wichita","iata":"ICT","lat":37.64989853,"lng":-97.43309784,"rank":97}},{"type":"Point","coordinates":[-81.44219971,40.91609955],"properties":{"name":"Akron Canton Regional","city":"Akron","iata":"CAK","lat":40.91609955,"lng":-81.44219971,"rank":98}},{"type":"Point","coordinates":[-73.70760345,41.06700134],"properties":{"name":"Westchester County","city":"White Plains","iata":"HPN","lat":41.06700134,"lng":-73.70760345,"rank":99}},{"type":"Point","coordinates":[-119.7180023,36.77619934],"properties":{"name":"Fresno Yosemite International","city":"Fresno","iata":"FAT","lat":36.77619934,"lng":-119.7180023,"rank":100}}]}},"crs":{"type":"name","properties":{"name":"urn:ogc:def:crs:OGC:1.3:CRS84"}}}